type,gid,geom_o,geom_err,ident,nom,etat,nbplaces,nbvelos,nbelec,nbclassiq,insee,cdate,mdate,longitude,latitude
VLS,1,0,,1,Meriadeck,CONNECTEE,14,18,12,6,33063,2011-01-01T00:00:00+01:00,2023-07-24T13:10:00+02:00,-0.5843699,44.8380299
VLS,2,0,,2,St Bruno,CONNECTEE,16,4,3,1,33063,2011-01-01T00:00:00+01:00,2023-07-24T13:10:00+02:00,-0.59028,44.8378399
VLS,3,0,,3,Piscine Judaique,CONNECTEE,14,12,8,4,33063,2011-01-01T00:00:00+01:00,2023-07-24T13:10:00+02:00,-0.593233,44.8408129
VLS,4,0,,4,St Seurin,CONNECTEE,6,12,10,2,33063,2011-01-01T00:00:00+01:00,2023-07-24T13:10:00+02:00,-0.5848199,44.8422099
VLS,5,0,,5,Place Gambetta,DECONNECTEE,26,12,8,4,33063,2011-01-01T00:00:00+01:00,2023-07-24T13:10:00+02:00,-0.581124,44.8407119
VLS,6,0,,6,Square Andre Lhote,CONNECTEE,9,21,15,6,33063,2011-01-01T00:00:00+01:00,2023-07-24T13:10:00+02:00,-0.5816599,44.8377899
VLS,7,0,,7,Palais de Justice,CONNECTEE,6,12,7,5,33063,2011-01-01T00:00:00+01:00,2023-07-24T13:10:00+02:00,-0.58211,44.8359399
VLS,9,0,,10,Stade Chaban Delmas,CONNECTEE,8,14,2,12,33063,2011-01-01T00:00:00+01:00,2023-07-24T13:10:00+02:00,-0.5986799,44.8317599
VLS,10,0,,11,Cite Administrative,CONNECTEE,13,16,12,4,33063,2011-01-01T00:00:00+01:00,2023-07-24T13:10:00+02:00,-0.5997,44.8416599
VLS,11,0,,12,Grand Lebrun ,CONNECTEE,8,7,2,5,33063,2011-01-01T00:00:00+01:00,2023-07-24T13:10:00+02:00,-0.6086099,44.8511499
VLS,12,0,,13,Barriere St Medard,DECONNECTEE,20,0,0,0,33063,2011-01-01T00:00:00+01:00,2023-07-24T13:10:00+02:00,-0.5981,44.8483699
VLS,13,0,,14,Dubreuil Turenne,CONNECTEE,26,4,2,2,33063,2011-01-01T00:00:00+01:00,2023-07-24T13:10:00+02:00,-0.59197,44.8481899
VLS,14,0,,15,Rue de la Croix Blanche,MAINTENANCE,14,0,0,0,33063,2011-01-01T00:00:00+01:00,2023-07-24T13:10:00+02:00,-0.59206,44.8452099
VLS,15,0,,16,Galin,CONNECTEE,16,13,5,8,33063,2011-01-01T00:00:00+01:00,2023-07-24T13:10:00+02:00,-0.5452499,44.8494699
VLS,16,0,,17,Palais Gallien,CONNECTEE,7,7,5,2,33063,2011-01-01T00:00:00+01:00,2023-07-24T13:10:00+02:00,-0.5821899,44.8468999
VLS,17,0,,18,Huguerie,CONNECTEE,8,6,3,3,33063,2011-01-01T00:00:00+01:00,2023-07-24T13:10:00+02:00,-0.58164,44.8442299
VLS,18,0,,19,Place Tourny,CONNECTEE,6,24,16,8,33063,2011-01-01T00:00:00+01:00,2023-07-24T13:10:00+02:00,-0.5774499,44.8446499
VLS,19,0,,20,Grands Hommes,CONNECTEE,27,4,2,2,33063,2011-01-01T00:00:00+01:00,2023-07-24T13:10:00+02:00,-0.57724,44.8431399
VLS,20,0,,21,Puy Paulin,CONNECTEE,13,2,1,1,33063,2011-01-01T00:00:00+01:00,2023-07-24T13:10:00+02:00,-0.5755999,44.8412199
VLS,21,0,,22,Hotel de Ville,CONNECTEE,16,17,12,5,33063,2011-01-01T00:00:00+01:00,2023-07-24T13:10:00+02:00,-0.57648,44.8382599
VLS,22,0,,23,Republique,CONNECTEE,33,7,3,4,33063,2011-01-01T00:00:00+01:00,2023-07-24T13:10:00+02:00,-0.5801899,44.8348299
VLS,23,0,,24,Liberation,CONNECTEE,7,9,2,7,33063,2011-01-01T00:00:00+01:00,2023-07-24T13:10:00+02:00,-0.58308,44.8332499
VLS,24,0,,25,Francois de Sourdis,CONNECTEE,12,1,1,0,33063,2011-01-01T00:00:00+01:00,2023-07-24T13:10:00+02:00,-0.5873399,44.8309999
VLS,25,0,,26,Xaintrailles,CONNECTEE,12,4,1,3,33063,2011-01-01T00:00:00+01:00,2023-07-24T13:10:00+02:00,-0.5934899,44.8279699
VLS,26,0,,27,Bordeaux II,CONNECTEE,5,15,3,12,33063,2011-01-01T00:00:00+01:00,2023-07-24T13:10:00+02:00,-0.60184,44.8265399
VLS,27,0,,28,Hopital Pellegrin,CONNECTEE,12,20,13,7,33063,2011-01-01T00:00:00+01:00,2023-07-24T13:10:00+02:00,-0.6035099,44.8298599
VLS,28,0,,29,St Augustin,CONNECTEE,10,10,3,7,33063,2011-01-01T00:00:00+01:00,2023-07-24T13:10:00+02:00,-0.60997,44.8327359
VLS,29,0,,30,Place Mondesir,CONNECTEE,10,6,4,2,33281,2011-01-01T00:00:00+01:00,2023-07-24T13:10:00+02:00,-0.6168899,44.8383799
VLS+,30,0,,31,Cauderan,CONNECTEE,6,10,8,2,33063,2011-01-01T00:00:00+01:00,2023-07-24T13:10:00+02:00,-0.61438,44.8517499
VLS,31,0,,32,Parc Bordelais,CONNECTEE,12,3,2,1,33063,2011-01-01T00:00:00+01:00,2023-07-24T13:10:00+02:00,-0.5992299,44.8526099
VLS,32,0,,33,Barriere du Medoc,CONNECTEE,18,2,1,1,33063,2011-01-01T00:00:00+01:00,2023-07-24T13:10:00+02:00,-0.5931279,44.8540919
VLS,33,0,,34,Tivoli,MAINTENANCE,13,0,0,0,33063,2011-01-01T00:00:00+01:00,2023-07-24T13:10:00+02:00,-0.58864,44.8537899
VLS,34,0,,35,Croix de Seguey,CONNECTEE,6,12,5,7,33063,2011-01-01T00:00:00+01:00,2023-07-24T13:10:00+02:00,-0.58547,44.8500499
VLS,35,0,,36,Place de Longchamps,CONNECTEE,9,7,0,7,33063,2011-01-01T00:00:00+01:00,2023-07-24T13:10:00+02:00,-0.5819999,44.8500499
VLS,36,0,,37,Jardin Public,CONNECTEE,9,21,10,11,33063,2011-01-01T00:00:00+01:00,2023-07-24T13:10:00+02:00,-0.57581,44.8484899
VLS,37,0,,38,Fondaudege Museum,CONNECTEE,3,13,7,6,33063,2011-01-01T00:00:00+01:00,2023-07-24T13:10:00+02:00,-0.5801999,44.8464099
VLS,38,0,,39,Quinconces,CONNECTEE,18,20,13,7,33063,2011-01-01T00:00:00+01:00,2023-07-24T13:10:00+02:00,-0.57434,44.8442299
VLS,39,0,,40,Grand Theatre,CONNECTEE,7,13,8,5,33063,2011-01-01T00:00:00+01:00,2023-07-24T13:10:00+02:00,-0.5739,44.8429299
VLS,40,0,,41,Place St Projet,CONNECTEE,14,3,3,0,33063,2011-01-01T00:00:00+01:00,2023-07-24T13:10:00+02:00,-0.5746599,44.8388899
VLS,41,0,,42,Camille Jullian,CONNECTEE,5,11,4,7,33063,2011-01-01T00:00:00+01:00,2023-07-24T13:10:00+02:00,-0.5720299,44.8392399
VLS,42,0,,43,St Paul,CONNECTEE,9,8,5,3,33063,2011-01-01T00:00:00+01:00,2023-07-24T13:10:00+02:00,-0.57279,44.8370699
VLS,43,0,,44,Musee d'Aquitaine,CONNECTEE,17,2,2,0,33063,2011-01-01T00:00:00+01:00,2023-07-24T13:10:00+02:00,-0.57544,44.8360599
VLS,44,0,,45,Place Ste Eulalie,CONNECTEE,15,5,2,3,33063,2011-01-01T00:00:00+01:00,2023-07-24T13:10:00+02:00,-0.57695,44.8331199
VLS,45,0,,46,Belcier Tram,CONNECTEE,7,14,6,8,33063,2011-01-01T00:00:00+01:00,2023-07-24T13:10:00+02:00,-0.5529299,44.8228029
VLS,46,0,,47,Magendie,CONNECTEE,14,1,0,1,33063,2011-01-01T00:00:00+01:00,2023-07-24T13:10:00+02:00,-0.5860499,44.8278899
VLS,47,0,,48,Barriere de Pessac,CONNECTEE,12,4,1,3,33063,2011-01-01T00:00:00+01:00,2023-07-24T13:10:00+02:00,-0.58975,44.8257799
VLS,48,0,,49,Emile Zola,CONNECTEE,9,8,2,6,33069,2011-01-01T00:00:00+01:00,2023-07-24T13:10:00+02:00,-0.5999499,44.8632899
VLS,49,0,,50,Mandron Godard,CONNECTEE,4,10,9,1,33063,2011-01-01T00:00:00+01:00,2023-07-24T13:10:00+02:00,-0.5887599,44.8599899
VLS,50,0,,51,Place Ampere,CONNECTEE,8,11,4,7,33063,2011-01-01T00:00:00+01:00,2023-07-24T13:10:00+02:00,-0.5832471,44.8625593
VLS,51,0,,52,Place de l'Europe,CONNECTEE,11,7,1,6,33063,2011-01-01T00:00:00+01:00,2023-07-24T13:10:00+02:00,-0.581327,44.8589019
VLS,52,0,,53,Parc Riviere,CONNECTEE,7,7,1,6,33063,2011-01-01T00:00:00+01:00,2023-07-24T13:10:00+02:00,-0.5865899,44.8541699
VLS,53,0,,54,Rue St Vincent de Paul,CONNECTEE,36,8,5,3,33063,2011-01-01T00:00:00+01:00,2023-07-24T13:10:00+02:00,-0.5573199,44.8264199
VLS,54,0,,55,Camille Godard,CONNECTEE,2,13,6,7,33063,2011-01-01T00:00:00+01:00,2023-07-24T13:10:00+02:00,-0.5743499,44.8546199
VLS,55,0,,56,Place Paul Doumer,CONNECTEE,14,6,0,6,33063,2011-01-01T00:00:00+01:00,2023-07-24T13:10:00+02:00,-0.5742699,44.8517099
VLS,56,0,,57,Eglise St Louis,CONNECTEE,13,3,1,2,33063,2011-01-01T00:00:00+01:00,2023-07-24T13:10:00+02:00,-0.5716299,44.8515499
VLS,57,0,,58,Chartrons,CONNECTEE,2,15,5,10,33063,2011-01-01T00:00:00+01:00,2023-07-24T13:10:00+02:00,-0.56727,44.8532099
VLS,58,0,,59,CAPC,CONNECTEE,6,11,8,3,33063,2011-01-01T00:00:00+01:00,2023-07-24T13:10:00+02:00,-0.57024,44.8497799
VLS,59,0,,60,Allees de Chartres,CONNECTEE,9,11,5,6,33063,2011-01-01T00:00:00+01:00,2023-07-24T13:10:00+02:00,-0.57131,44.8471799
VLS,60,0,,61,Parc aux Angeliques,CONNECTEE,12,4,2,2,33063,2011-01-01T00:00:00+01:00,2023-07-24T13:10:00+02:00,-0.56495,44.8462499
VLS+,61,0,,62,Cenon Gare,CONNECTEE,8,22,9,13,33119,2011-01-01T00:00:00+01:00,2023-07-24T13:10:00+02:00,-0.533983,44.8564759
VLS+,62,0,,63,Francois Mitterrand,DECONNECTEE,12,5,4,1,33167,2011-01-01T00:00:00+01:00,2023-07-24T13:10:00+02:00,-0.5269699,44.8302799
VLS,63,0,,64,La Benauge,CONNECTEE,4,14,4,10,33063,2011-01-01T00:00:00+01:00,2023-07-24T13:10:00+02:00,-0.55645,44.8395999
VLS,64,0,,65,Stalingrad,CONNECTEE,30,10,6,4,33063,2011-01-01T00:00:00+01:00,2023-07-24T13:10:00+02:00,-0.55955,44.8403399
VLS,65,0,,66,Gare d'Orleans,CONNECTEE,12,8,2,6,33063,2011-01-01T00:00:00+01:00,2023-07-24T13:10:00+02:00,-0.56224,44.8411399
VLS,66,0,,67,Allee de Serr Abadie,CONNECTEE,5,13,7,6,33063,2011-01-01T00:00:00+01:00,2023-07-24T13:10:00+02:00,-0.55751,44.8437699
VLS,67,0,,68,Jardin Botanique,CONNECTEE,15,3,0,3,33063,2011-01-01T00:00:00+01:00,2023-07-24T13:10:00+02:00,-0.5557299,44.8429799
VLS,68,0,,69,Cours Le Rouzic,CONNECTEE,11,2,0,2,33063,2011-01-01T00:00:00+01:00,2023-07-24T13:10:00+02:00,-0.5503599,44.8429899
VLS+,69,0,,70,Buttiniere,CONNECTEE,10,10,6,4,33249,2011-01-01T00:00:00+01:00,2023-07-24T13:10:00+02:00,-0.5241999,44.8642799
VLS+,70,0,,72,Jean Zay,CONNECTEE,19,5,4,1,33119,2011-01-01T00:00:00+01:00,2023-07-24T13:10:00+02:00,-0.51282,44.8541799
VLS+,72,0,,74,Place du 14 juillet,CONNECTEE,14,8,5,3,33039,2011-01-01T00:00:00+01:00,2023-07-24T13:10:00+02:00,-0.5482099,44.8076999
VLS+,73,0,,75,Begles Poste,CONNECTEE,10,8,2,6,33039,2011-01-01T00:00:00+01:00,2023-07-24T13:10:00+02:00,-0.560024,44.8077349
VLS+,74,0,,76,Pont de la Maye,CONNECTEE,13,8,3,5,33550,2011-01-01T00:00:00+01:00,2023-07-24T13:10:00+02:00,-0.566207,44.7817419
VLS+,75,0,,78,Bougnard,CONNECTEE,7,13,8,5,33318,2011-01-01T00:00:00+01:00,2023-07-24T13:10:00+02:00,-0.6350511,44.7939142
VLS+,76,0,,80,Gare Pessac Alouette,CONNECTEE,12,6,6,0,33318,2011-01-01T00:00:00+01:00,2023-07-24T13:10:00+02:00,-0.6576319,44.7931899
VLS+,77,0,,82,La Chataigneraie,CONNECTEE,9,10,6,4,33318,2011-01-01T00:00:00+01:00,2023-07-24T13:10:00+02:00,-0.646629,44.7929149
VLS+,78,0,,83,Pessac Centre,CONNECTEE,15,6,5,1,33318,2011-01-01T00:00:00+01:00,2023-07-24T13:10:00+02:00,-0.63267,44.8044599
VLS+,80,0,,85,Merignac Quatre Chemins,CONNECTEE,10,7,4,3,33281,2011-01-01T00:00:00+01:00,2023-07-24T13:10:00+02:00,-0.64594,44.8324199
VLS+,82,0,,88,Merignac Capeyron,CONNECTEE,13,5,1,4,33281,2011-01-01T00:00:00+01:00,2023-07-24T13:10:00+02:00,-0.64475,44.8509699
VLS+,83,0,,89,Merignac Centre,CONNECTEE,7,13,9,4,33281,2011-01-01T00:00:00+01:00,2023-07-24T13:10:00+02:00,-0.6464649,44.8415999
VLS+,84,0,,90,Fontaine d'Arlac,CONNECTEE,9,9,4,5,33281,2011-01-01T00:00:00+01:00,2023-07-24T13:10:00+02:00,-0.62577,44.8264999
VLS+,85,0,,93,Place Florale,CONNECTEE,8,8,4,4,33162,2011-01-01T00:00:00+01:00,2023-07-24T13:10:00+02:00,-0.636207,44.8690259
VLS+,86,0,,95,Bruges Hotel de Ville,CONNECTEE,1,14,9,5,33075,2011-01-01T00:00:00+01:00,2023-07-24T13:10:00+02:00,-0.6133699,44.8814499
VLS,88,0,,98,Bassins a flot,CONNECTEE,6,11,3,8,33063,2011-01-01T00:00:00+01:00,2023-07-24T13:10:00+02:00,-0.5544699,44.8600699
VLS,89,0,,99,Les Hangars,CONNECTEE,8,12,9,3,33063,2011-01-01T00:00:00+01:00,2023-07-24T13:10:00+02:00,-0.5580799,44.8578699
VLS,90,0,,100,Cours du Medoc,CONNECTEE,21,19,13,6,33063,2011-01-01T00:00:00+01:00,2023-07-24T13:10:00+02:00,-0.56319,44.8555999
VLS,93,0,,103,Place du Palais,CONNECTEE,10,10,4,6,33063,2011-01-01T00:00:00+01:00,2023-07-24T13:10:00+02:00,-0.57034,44.8377899
VLS,95,0,,105,Rue du Mirail,CONNECTEE,10,9,4,5,33063,2011-01-01T00:00:00+01:00,2023-07-24T13:10:00+02:00,-0.57097,44.8326199
VLS,97,0,,107,St Nicolas,CONNECTEE,13,2,2,0,33063,2011-01-01T00:00:00+01:00,2023-07-24T13:10:00+02:00,-0.57589,44.8275099
VLS,98,0,,108,Bergonie,CONNECTEE,8,8,4,4,33063,2011-01-01T00:00:00+01:00,2023-07-24T13:10:00+02:00,-0.5781499,44.8247099
VLS,99,0,,109,Barriere St Genes,CONNECTEE,18,18,15,3,33063,2011-01-01T00:00:00+01:00,2023-07-24T13:10:00+02:00,-0.58178,44.8220899
VLS,100,0,,110,Forum,CONNECTEE,19,21,11,10,,2011-01-01T00:00:00+01:00,2023-07-24T13:10:00+02:00,-0.5910299,44.8123799
VLS,101,0,,111,Peixotto,CONNECTEE,8,32,16,16,33522,2011-01-01T00:00:00+01:00,2023-07-24T13:10:00+02:00,-0.5924499,44.8068099
VLS,102,0,,112,Arts et Metiers,CONNECTEE,12,25,13,12,33522,2011-01-01T00:00:00+01:00,2023-07-24T13:10:00+02:00,-0.6023199,44.8059099
VLS,103,0,,113,Ecole de Management,CONNECTEE,15,5,2,3,33522,2011-01-01T00:00:00+01:00,2023-07-24T13:10:00+02:00,-0.60187,44.7968799
VLS,104,0,,114,Compostelle,CONNECTEE,21,6,3,3,33192,2011-01-01T00:00:00+01:00,2023-07-24T13:10:00+02:00,-0.60547,44.7931299
VLS,105,0,,115,CREPS ,CONNECTEE,18,12,3,9,33522,2011-01-01T00:00:00+01:00,2023-07-24T13:10:00+02:00,-0.5971532,44.8013759
VLS,106,0,,116,Montaigne Montesquieu,CONNECTEE,24,16,6,10,33318,2011-01-01T00:00:00+01:00,2023-07-24T13:10:00+02:00,-0.6170399,44.7966699
VLS,107,0,,117,Doyen Brus,CONNECTEE,8,11,5,6,33318,2011-01-01T00:00:00+01:00,2023-07-24T13:10:00+02:00,-0.60986,44.8003799
VLS,108,0,,118,Place Ravezies,CONNECTEE,10,9,5,4,33069,2011-01-01T00:00:00+01:00,2023-07-24T13:10:00+02:00,-0.57608,44.8669399
VLS,109,0,,119,Grand Parc,CONNECTEE,14,6,4,2,33063,2011-01-01T00:00:00+01:00,2023-07-24T13:10:00+02:00,-0.5757599,44.8625999
VLS,110,0,,120,St Louis Haussmann,CONNECTEE,22,8,4,4,33063,2011-01-01T00:00:00+01:00,2023-07-24T13:10:00+02:00,-0.5671799,44.8626099
VLS,111,0,,121,Place St Martial,CONNECTEE,7,7,3,4,33063,2011-01-01T00:00:00+01:00,2023-07-24T13:10:00+02:00,-0.56584,44.8589099
VLS,112,0,,122,Cours St Louis Medoc,CONNECTEE,10,6,3,3,33063,2011-01-01T00:00:00+01:00,2023-07-24T13:10:00+02:00,-0.5696599,44.8584899
VLS,113,0,,123,Porte de Bourgogne,CONNECTEE,15,21,10,11,33063,2011-01-01T00:00:00+01:00,2023-07-24T13:10:00+02:00,-0.56716,44.8377899
VLS,114,0,,124,Parc des Sports,CONNECTEE,14,6,1,5,33063,2011-01-01T00:00:00+01:00,2023-07-24T13:10:00+02:00,-0.5627099,44.8338699
VLS,115,0,,125,Conservatoire,CONNECTEE,14,16,8,8,33063,2011-01-01T00:00:00+01:00,2023-07-24T13:10:00+02:00,-0.55966,44.8318299
VLS,116,0,,126,Quai de Paludate,CONNECTEE,6,6,2,4,33063,2011-01-01T00:00:00+01:00,2023-07-24T13:10:00+02:00,-0.5498299,44.8266999
VLS,117,0,,127,Gare St Jean,CONNECTEE,18,4,1,3,33063,2011-01-01T00:00:00+01:00,2023-07-24T13:10:00+02:00,-0.5570699,44.8262999
VLS,118,0,,128,Sacre Coeur,CONNECTEE,7,9,3,6,33063,2011-01-01T00:00:00+01:00,2023-07-24T13:10:00+02:00,-0.56308,44.8221799
VLS,119,0,,129,Barriere de Begles,CONNECTEE,10,6,4,2,33039,2011-01-01T00:00:00+01:00,2023-07-24T13:10:00+02:00,-0.5642,44.8130799
VLS,120,0,,130,Barriere de Toulouse,CONNECTEE,15,4,1,3,33063,2011-01-01T00:00:00+01:00,2023-07-24T13:10:00+02:00,-0.5705889,44.8144759
VLS,121,0,,131,Nansouty,CONNECTEE,9,8,5,3,33063,2011-01-01T00:00:00+01:00,2023-07-24T13:10:00+02:00,-0.572205,44.8202579
VLS,122,0,,132,Cours de la Somme,CONNECTEE,11,2,1,1,33063,2011-01-01T00:00:00+01:00,2023-07-24T13:10:00+02:00,-0.57248,44.8262799
VLS,123,0,,133,Capucins,CONNECTEE,1,19,11,8,33063,2011-01-01T00:00:00+01:00,2023-07-24T13:10:00+02:00,-0.5681199,44.8299499
VLS,124,0,,134,Place du Maucaillou,CONNECTEE,11,9,2,7,33063,2011-01-01T00:00:00+01:00,2023-07-24T13:10:00+02:00,-0.5670693,44.832436
VLS,125,0,,135,Place St Michel,CONNECTEE,13,6,4,2,33063,2011-01-01T00:00:00+01:00,2023-07-24T13:10:00+02:00,-0.564732,44.8347969
VLS,126,0,,136,Eglise Ste Croix,CONNECTEE,12,6,3,3,33063,2011-01-01T00:00:00+01:00,2023-07-24T13:10:00+02:00,-0.56139,44.8313099
VLS,127,0,,137,Place Andre Meunier,CONNECTEE,15,8,3,5,33063,2011-01-01T00:00:00+01:00,2023-07-24T13:10:00+02:00,-0.562299,44.8283269
VLS,128,0,,138,Barbey,CONNECTEE,9,10,8,2,,2011-01-01T00:00:00+01:00,2023-07-24T13:10:00+02:00,-0.56455,44.8265599
VLS,129,0,,140,Charles Perrens,CONNECTEE,4,15,8,7,33063,2011-01-01T00:00:00+01:00,2023-07-24T13:10:00+02:00,-0.6006622,44.823079
VLS,130,0,,141,Medoquine,CONNECTEE,10,10,4,6,33522,2011-01-01T00:00:00+01:00,2023-07-24T13:10:00+02:00,-0.5999189,44.8188739
VLS,131,0,,142,Bourranville,CONNECTEE,17,3,2,1,33281,2011-01-01T00:00:00+01:00,2023-07-24T13:10:00+02:00,-0.6292359,44.8394699
VLS,132,0,,143,Pins Francs,CONNECTEE,12,6,5,1,33063,2011-01-01T00:00:00+01:00,2023-07-24T13:10:00+02:00,-0.6233409,44.8580799
VLS,133,0,,144,Jean Moulin,CONNECTEE,18,1,0,1,33075,2011-01-01T00:00:00+01:00,2023-07-24T13:10:00+02:00,-0.5850099,44.8784939
VLS+,134,0,,145,Berges du Lac,CONNECTEE,9,8,8,0,33063,2011-01-01T00:00:00+01:00,2023-07-24T13:10:00+02:00,-0.5705699,44.8790399
VLS+,135,0,,146,Palais des Congres,CONNECTEE,16,14,6,8,33063,2011-01-01T00:00:00+01:00,2023-07-24T13:10:00+02:00,-0.5677812,44.8889238
VLS+,136,0,,147,Parc des Expositions,CONNECTEE,5,25,7,18,33063,2011-01-01T00:00:00+01:00,2023-07-24T13:10:00+02:00,-0.5662245,44.8929694
VLS+,137,0,,148,Berges de Garonne,MAINTENANCE,14,0,0,0,33063,2011-01-01T00:00:00+01:00,2023-07-24T13:10:00+02:00,-0.5414474,44.8859648
VLS+,138,0,,149,Lauriers,CONNECTEE,15,5,0,5,33249,2011-01-01T00:00:00+01:00,2023-07-24T13:10:00+02:00,-0.51783,44.8788899
VLS+,139,0,,151,Dravemont,CONNECTEE,8,11,8,3,33167,2011-01-01T00:00:00+01:00,2023-07-24T13:10:00+02:00,-0.5105319,44.8456299
VLS,140,0,,152,Hopital Robert Picque,CONNECTEE,14,5,3,2,33550,2011-01-01T00:00:00+01:00,2023-07-24T13:10:00+02:00,-0.569953,44.7996699
VLS+,141,0,,153,Parc Sourreil,CONNECTEE,13,7,4,3,33550,2011-01-01T00:00:00+01:00,2023-07-24T13:10:00+02:00,-0.5816959,44.7922999
VLS+,142,0,,154,Thouars,CONNECTEE,17,2,1,1,33522,2011-01-01T00:00:00+01:00,2023-07-24T13:10:00+02:00,-0.591518,44.7920899
VLS+,143,0,,155,Village 6 IUT,CONNECTEE,12,12,4,8,33192,2011-01-01T00:00:00+01:00,2023-07-24T13:10:00+02:00,-0.613107,44.7914849
VLS,144,0,,156,Hotel de Ville Merignac,CONNECTEE,12,7,3,4,33281,2011-01-01T00:00:00+01:00,2023-07-24T13:10:00+02:00,-0.6589114,44.8443044
VLS+,145,0,,157,Les Pins,CONNECTEE,12,8,2,6,33281,2011-01-01T00:00:00+01:00,2023-07-24T13:10:00+02:00,-0.659829,44.8568199
VLS+,146,0,,159,Camping International,CONNECTEE,16,8,3,5,33075,2011-01-01T00:00:00+01:00,2023-07-24T13:10:00+02:00,-0.5825109,44.8978459
VLS+,147,0,,162,Gare de Begles,CONNECTEE,12,8,3,5,33039,2011-01-01T00:00:00+01:00,2023-07-24T13:10:00+02:00,-0.551517,44.7981949
VLS+,148,0,,163,Lycee Vaclav Havel,CONNECTEE,11,9,2,7,,2011-01-01T00:00:00+01:00,2023-07-24T13:10:00+02:00,-0.565509,44.7856889
VLS+,149,0,,166,Centre commercial du Lac,CONNECTEE,8,12,8,4,33063,2011-01-01T00:00:00+01:00,2023-07-24T13:10:00+02:00,-0.5652209,44.8819199
VLS,151,0,,170,Lucien Faure,CONNECTEE,5,15,9,6,33063,2011-01-01T00:00:00+01:00,2023-07-24T13:10:00+02:00,-0.5608429,44.8661519
VLS,152,0,,171,Place Amedee Larrieu,CONNECTEE,10,9,5,4,33063,2011-01-01T00:00:00+01:00,2023-07-24T13:10:00+02:00,-0.5814089,44.8299299
VLS,153,0,,172,La Cite du Vin,CONNECTEE,19,9,6,3,33063,2011-01-01T00:00:00+01:00,2023-07-24T13:10:00+02:00,-0.5514989,44.8617799
VLS,154,0,,173,Rue Achard,CONNECTEE,0,20,15,5,33063,2011-01-01T00:00:00+01:00,2023-07-24T13:10:00+02:00,-0.5480999,44.8674899
VLS,155,0,,174,Darwin,CONNECTEE,7,36,11,25,33063,2011-01-01T00:00:00+01:00,2023-07-24T13:10:00+02:00,-0.5624086,44.8491802
VLS,156,0,,175,Arena,CONNECTEE,7,13,4,9,33167,2011-01-01T00:00:00+01:00,2023-07-24T13:10:00+02:00,-0.5316309,44.8260539
VLS,157,0,,176,Musee Mer Marine,CONNECTEE,14,6,5,1,33063,2011-01-01T00:00:00+01:00,2023-07-24T13:10:00+02:00,-0.556399,44.8690639
VLS,159,0,,178,Jean Jaures,CONNECTEE,11,9,7,2,33063,2011-01-01T00:00:00+01:00,2023-07-24T13:10:00+02:00,-0.537826,44.8540039
VLS+,161,0,,181,Mairie du Bouscat,CONNECTEE,7,13,5,8,33063,2011-01-01T00:00:00+01:00,2023-07-24T13:10:00+02:00,-0.60529,44.8662139
VLS+,162,0,,182,Hippodrome,CONNECTEE,8,12,6,6,33162,2011-01-01T00:00:00+01:00,2023-07-24T13:10:00+02:00,-0.629383,44.8738049
VLS+,163,0,,184,Lormont bas,CONNECTEE,16,4,2,2,,2011-01-01T00:00:00+01:00,2023-07-24T13:10:00+02:00,-0.5342929,44.8779049
VLS,166,0,,251,Belcier Gare,CONNECTEE,34,6,4,2,33063,2011-01-01T00:00:00+01:00,2023-07-24T13:10:00+02:00,-0.554574,44.8232849
VLS,8,0,,9,Gavinies,CONNECTEE,8,11,4,7,33063,2011-01-01T00:00:00+01:00,2023-07-24T13:10:00+02:00,-0.59289,44.8330299
VLS+,71,0,,73,Terres Neuves,CONNECTEE,12,8,3,5,33039,2011-01-01T00:00:00+01:00,2023-07-24T13:10:00+02:00,-0.5509009,44.8150829
VLS+,79,0,,84,Le Burck,CONNECTEE,13,5,3,2,33281,2011-01-01T00:00:00+01:00,2023-07-24T13:10:00+02:00,-0.63444,44.8153499
VLS+,81,0,,86,Merignac Soleil,CONNECTEE,5,14,12,2,33281,2011-01-01T00:00:00+01:00,2023-07-24T13:10:00+02:00,-0.654779,44.8319169
VLS+,87,0,,97,Claveau,MAINTENANCE,19,0,0,0,33063,2011-01-01T00:00:00+01:00,2023-07-24T13:10:00+02:00,-0.5443299,44.8773799
VLS,91,0,,101,Place Jean Jaures,CONNECTEE,5,14,8,6,33063,2011-01-01T00:00:00+01:00,2023-07-24T13:10:00+02:00,-0.57037,44.8429499
VLS,92,0,,102,Place de la Bourse,CONNECTEE,16,4,2,2,33063,2011-01-01T00:00:00+01:00,2023-07-24T13:10:00+02:00,-0.56914,44.8402999
VLS,94,0,,104,Grosse Cloche,CONNECTEE,6,11,3,8,33063,2011-01-01T00:00:00+01:00,2023-07-24T13:10:00+02:00,-0.57205,44.8351799
VLS,96,0,,106,Place de la Victoire,CONNECTEE,15,24,11,13,33063,2011-01-01T00:00:00+01:00,2023-07-24T13:10:00+02:00,-0.57321,44.8306399
VLS,158,0,,177,Cite numerique,CONNECTEE,14,10,8,2,33039,2011-01-01T00:00:00+01:00,2023-07-24T13:10:00+02:00,-0.55517,44.8132739
VLS,160,0,,179,Rue Paulin,CONNECTEE,13,10,3,7,33063,2011-01-01T00:00:00+01:00,2023-07-24T13:10:00+02:00,-0.587664,44.8473999
VLS,164,0,,185,Place Latule,CONNECTEE,5,14,9,5,,2011-01-01T00:00:00+01:00,2023-07-24T13:10:00+02:00,-0.56634,44.8693729
VLS,165,0,,186,Bagatelle,CONNECTEE,12,8,4,4,,2011-01-01T00:00:00+01:00,2023-07-24T13:10:00+02:00,-0.574862,44.8073889
VLS+,150,0,,169,Bruges La Vache,DECONNECTEE,17,2,1,1,33075,2011-01-01T00:00:00+01:00,2023-07-24T13:10:00+02:00,-0.5908097,44.8723968
